state_name,county_name,lon,lat
ILLINOIS,BUREAU,-89.5341179,41.4016294
ILLINOIS,CARROLL,-89.9556785,42.0647352
ILLINOIS,HENRY,-90.1177442,41.3418549
ILLINOIS,JO DAVIESS,-90.1743742,42.3506664
ILLINOIS,LEE,-89.28602959086061,41.74731105
ILLINOIS,MERCER,-90.7398717,41.2019729
ILLINOIS,OGLE,-89.3138599,42.0397014
ILLINOIS,PUTNAM,-89.2676414,41.2025915
ILLINOIS,ROCK ISLAND,-90.5766144,41.4411786
ILLINOIS,STEPHENSON,-89.6735637,42.3503474
ILLINOIS,WHITESIDE,-89.9214744,41.7612332
ILLINOIS,WINNEBAGO,-89.1496574,42.3255276
ILLINOIS,BOONE,-88.8235511,42.321246
ILLINOIS,COOK,-87.756525,41.8197385
ILLINOIS,DE KALB,-88.749671,41.934749
ILLINOIS,DUPAGE,-88.0906873,41.8603735
ILLINOIS,GRUNDY,-88.4119361,41.2747363
ILLINOIS,KANE,-88.4248315,41.923434
ILLINOIS,KENDALL,-88.4319488,41.5853584
ILLINOIS,LAKE,-87.9939552,42.3327033
ILLINOIS,LA SALLE,-89.0917497,41.3333679
ILLINOIS,MCHENRY,-88.4605713,42.3294391
ILLINOIS,WILL,-87.9994754,41.4194058
ILLINOIS,ADAMS,-91.2110065,39.9787786
ILLINOIS,BROWN,-90.7485656,39.9498214
ILLINOIS,FULTON,-90.1845556,40.4714305
ILLINOIS,HANCOCK,-91.1458063,40.3941712
ILLINOIS,HENDERSON,-90.9104547,40.8156124
ILLINOIS,KNOX,-90.2202325,40.920889
ILLINOIS,MCDONOUGH,-90.6780272,40.4376858
ILLINOIS,SCHUYLER,-90.5697373,40.1370869
ILLINOIS,WARREN,-90.6168408,40.8442828
ILLINOIS,DE WITT,-88.7861844,40.1811468
ILLINOIS,LOGAN,-89.3768539,40.1075089
ILLINOIS,MCLEAN,-88.8196613,40.4631789
ILLINOIS,MACON,-88.9602376,39.8455208
ILLINOIS,MARSHALL,-89.2998456,41.0324537
ILLINOIS,MASON,-89.8660433,40.2302271
ILLINOIS,MENARD,-89.7858065,40.0166667
ILLINOIS,PEORIA,-89.5891008,40.6938609
ILLINOIS,STARK,-89.8066831,41.0712135
ILLINOIS,TAZEWELL,-89.5442084,40.5126429
ILLINOIS,WOODFORD,-89.2074215,40.8145359
ILLINOIS,CHAMPAIGN,-88.2430932,40.1164841
ILLINOIS,FORD,-88.2552987,40.4980955
ILLINOIS,IROQUOIS,-87.8309209,40.7351265
ILLINOIS,KANKAKEE,-87.848682,41.1253903
ILLINOIS,LIVINGSTON,-88.5631125,40.8682487
ILLINOIS,PIATT,-88.6072399,39.967291
ILLINOIS,VERMILION,-87.7323857,40.1749809
ILLINOIS,BOND,-89.4391416,38.8630331
ILLINOIS,CALHOUN,-90.6506113,39.1397507
ILLINOIS,CASS,-90.250722,39.9682127
ILLINOIS,CHRISTIAN,-89.2829783,39.5212598
ILLINOIS,GREENE,-90.3898985,39.3573664
ILLINOIS,JERSEY,-90.3303344,39.0848464
ILLINOIS,MACOUPIN,-89.925212,39.2420653
ILLINOIS,MADISON,-89.9017112,38.811063
ILLINOIS,MONTGOMERY,-89.5057126,39.2052633
ILLINOIS,MORGAN,-90.190335,39.7062265
ILLINOIS,PIKE,-90.8538306,39.6108707
ILLINOIS,SANGAMON,-89.6454905,39.7623668
ILLINOIS,SCOTT,-90.4753685,39.6333408
ILLINOIS,CLARK,-87.7838526,39.3260541
ILLINOIS,CLAY,-88.4910693,38.7340694
ILLINOIS,COLES,-88.2184999,39.5266741
ILLINOIS,CRAWFORD,-87.7291001,39.0131644
ILLINOIS,CUMBERLAND,-88.2423795,39.2744299
ILLINOIS,DOUGLAS,-88.2170516,39.7628415
ILLINOIS,EDGAR,-87.7340364,39.6714952
ILLINOIS,EFFINGHAM,-88.6029006,39.0520902
ILLINOIS,FAYETTE,-89.0430211,39.0001282
ILLINOIS,JASPER,-88.1552371,39.0082423
ILLINOIS,LAWRENCE,-87.71433590428737,38.710333000000006
ILLINOIS,MARION,-88.9232112,38.6477381
ILLINOIS,MOULTRIE,-88.6087498,39.6391442
ILLINOIS,RICHLAND,-88.0949352,38.7060457
ILLINOIS,SHELBY,-88.7886278,39.3665064
ILLINOIS,ALEXANDER,-89.3502834,37.1801529
ILLINOIS,CLINTON,-89.420064,38.5896187
ILLINOIS,JACKSON,-89.3563845,37.7668943
ILLINOIS,JOHNSON,-88.8844045,37.4501818
ILLINOIS,MONROE,-90.1792484,38.2722313
ILLINOIS,PERRY,-89.3760499,38.0772859
ILLINOIS,PULASKI,-89.1183427,37.2314232
ILLINOIS,RANDOLPH,-89.8107962,38.0472916
ILLINOIS,ST CLAIR,-89.9324347,38.4616972
ILLINOIS,UNION,-89.2504793,37.4616454
ILLINOIS,WASHINGTON,-89.4201902,38.3662806
ILLINOIS,WILLIAMSON,-88.92944520134037,37.737632500000004
ILLINOIS,EDWARDS,-88.0584362,38.410254
ILLINOIS,FRANKLIN,-88.9335327,37.9765409
ILLINOIS,GALLATIN,-88.2264519,37.7509507
ILLINOIS,HAMILTON,-88.5301136,38.0619569
ILLINOIS,HARDIN,-88.23783528339774,37.4999684
ILLINOIS,JEFFERSON,-88.9344303,38.3010487
ILLINOIS,MASSAC,-88.7163312,37.2177417
ILLINOIS,POPE,-88.5904425,37.3933531
ILLINOIS,SALINE,-88.5302584,37.750075
ILLINOIS,WABASH,-87.8460903,38.4615994
ILLINOIS,WAYNE,-88.4197678,38.4251958
ILLINOIS,WHITE,-88.1577725,38.0632329
INDIANA,BENTON,-87.3235164,40.6034281
INDIANA,JASPER,-87.1066598,41.0321808
INDIANA,LAKE,-87.3692227,41.4193829
INDIANA,LA PORTE,-86.7225227,41.6105983
INDIANA,NEWTON,-87.3966953,40.939576
INDIANA,PORTER,-87.0724971,41.4457032
INDIANA,PULASKI,-86.6990692,41.031393
INDIANA,STARKE,-86.6457565,41.2753164
INDIANA,WHITE,-86.8713913,40.7422434
INDIANA,CARROLL,-86.5693296,40.5802239
INDIANA,CASS,-86.3449159,40.7808235
INDIANA,ELKHART,-85.8590603,41.6012796
INDIANA,FULTON,-86.2875206,41.0421416
INDIANA,KOSCIUSKO,-85.8529731,41.2351957
INDIANA,MARSHALL,-86.2809625,41.322843
INDIANA,MIAMI,-86.1059443,40.6144919
INDIANA,ST. JOSEPH,-86.2787334,41.5941578
INDIANA,WABASH,-85.7833563,40.8065352
INDIANA,ADAMS,-84.9347295,40.7371667
INDIANA,ALLEN,-85.0562084,41.0975573
INDIANA,DE KALB,-85.814309,41.5280047
INDIANA,HUNTINGTON,-85.5018494,40.8008286
INDIANA,LAGRANGE,-85.4216948,41.6372578
INDIANA,NOBLE,-85.4193348,41.3990708
INDIANA,STEUBEN,-85.0023642,41.6414101
INDIANA,WELLS,-85.2116102,40.7013353
INDIANA,WHITLEY,-85.5035187,41.1238216
INDIANA,CLAY,-87.1025862,39.3864958
INDIANA,FOUNTAIN,-87.2497418,40.125252
INDIANA,MONTGOMERY,-86.9007083,40.0361447
INDIANA,OWEN,-86.8508562,39.2984518
INDIANA,PARKE,-87.2158436,39.7686321
INDIANA,PUTNAM,-86.8374032,39.6666195
INDIANA,TIPPECANOE,-86.8879689,40.3916066
INDIANA,VERMILLION,-87.4635672,39.8763626
INDIANA,VIGO,-87.3974269,39.4174652
INDIANA,WARREN,-87.3564255,40.3424546
INDIANA,BARTHOLOMEW,-85.8204601,39.1914156
INDIANA,BOONE,-86.4650842,40.0459913
INDIANA,CLINTON,-86.4692735,40.2992769
INDIANA,DECATUR,-85.4943058,39.2862128
INDIANA,GRANT,-85.6540606,40.5114735
INDIANA,HAMILTON,-86.0498885,40.0749813
INDIANA,HANCOCK,-85.7874738,39.8127873
INDIANA,HENDRICKS,-86.5173641,39.7565309
INDIANA,HOWARD,-86.1350343,40.4787061
INDIANA,JOHNSON,-86.1079903,39.4891804
INDIANA,MADISON,-85.7260804,40.1624531
INDIANA,MARION,-85.6591442,40.5583739
INDIANA,MORGAN,-86.4556794,39.4665575
INDIANA,RUSH,-85.4731911,39.6220357
INDIANA,SHELBY,-85.8190596,39.493485
INDIANA,TIPTON,-86.058442,40.2899154
INDIANA,BLACKFORD,-85.3305529,40.4692826
INDIANA,DELAWARE,-85.2071816,39.1478313
INDIANA,FAYETTE,-85.179378,39.619235
INDIANA,HENRY,-85.4043542,39.9297608
INDIANA,JAY,-85.0212356,40.4370864
INDIANA,RANDOLPH,-85.011566,40.1560108
INDIANA,UNION,-84.9292376,39.6196086
INDIANA,WAYNE,-85.0198586,39.8638778
INDIANA,DAVIESS,-87.0813484,38.6776099
INDIANA,DUBOIS,-86.8870278,38.3644324
INDIANA,GIBSON,-87.5775949,38.3079744
INDIANA,GREENE,-86.9958489,39.0227107
INDIANA,KNOX,-87.3811461,38.687009
INDIANA,MARTIN,-86.8022436,38.6705579
INDIANA,PIKE,-87.214144,38.4159433
INDIANA,POSEY,-87.8543645,38.0145359
INDIANA,SPENCER,-86.9976446,38.0288806
INDIANA,SULLIVAN,-87.4172644,39.0492722
INDIANA,VANDERBURGH,-87.5806553,38.0461185
INDIANA,WARRICK,-87.2758933,38.0906065
INDIANA,BROWN,-86.2297004,39.1682855
INDIANA,CRAWFORD,-86.444022,38.304425
INDIANA,FLOYD,-85.8996295,38.3176799
INDIANA,HARRISON,-86.1066917,38.1816187
INDIANA,JACKSON,-86.0650856,38.9023184
INDIANA,LAWRENCE,-86.4880717,38.8400395
INDIANA,MONROE,-86.5186372,39.1296076
INDIANA,ORANGE,-86.4953216,38.5421361
INDIANA,PERRY,-86.632911,38.0893386
INDIANA,WASHINGTON,-86.1179768,38.5612578
INDIANA,CLARK,-85.7169081,38.4941217
INDIANA,DEARBORN,-84.9820997,39.1340338
INDIANA,FRANKLIN,-85.0563234,39.4149034
INDIANA,JEFFERSON,-85.4299489,38.8166724
INDIANA,JENNINGS,-85.6359201,38.9957749
INDIANA,OHIO,-84.9581728,38.9480496
INDIANA,RIPLEY,-85.2691784,39.0846316
INDIANA,SCOTT,-85.7444145,38.6727039
INDIANA,SWITZERLAND,-85.0373975,38.8249258
IOWA,BUENA VISTA,-95.1127525,42.7445814
IOWA,CHEROKEE,-95.6249803,42.7247968
IOWA,CLAY,-95.1407762,43.0809373
IOWA,DICKINSON,-95.1654279,43.3753018
IOWA,EMMET,-94.6749933,43.3707528
IOWA,LYON,-96.2081917,43.3747071
IOWA,O BRIEN,-95.6277063,43.0755779
IOWA,OSCEOLA,-95.6299944,43.3684613
IOWA,PALO ALTO,-94.6625047,43.0762829
IOWA,PLYMOUTH,-96.2213607,42.7369124
IOWA,POCAHONTAS,-94.6477383,42.7262681
IOWA,SIOUX,-96.1602368,43.0574079
IOWA,BUTLER,-92.7819493,42.7336512
IOWA,CERRO GORDO,-93.2548746,43.0742443
IOWA,FLOYD,-92.7830539,43.0587894
IOWA,FRANKLIN,-93.2513168,42.7285907
IOWA,HANCOCK,-93.7363674,43.0847702
IOWA,HUMBOLDT,-94.1956133,42.7756032
IOWA,KOSSUTH,-94.209098,43.1825351
IOWA,MITCHELL,-92.7840209,43.342033
IOWA,WINNEBAGO,-93.7316088,43.3747879
IOWA,WORTH,-93.2658698,43.3696764
IOWA,WRIGHT,-93.7325849,42.7404452
IOWA,ALLAMAKEE,-91.3961856,43.2961731
IOWA,BLACK HAWK,-92.3030235,42.4607526
IOWA,BREMER,-92.3099856,42.7669649
IOWA,BUCHANAN,-91.8449198,42.4634928
IOWA,CHICKASAW,-92.316679,43.05994
IOWA,CLAYTON,-91.3667151,42.8547706
IOWA,DELAWARE,-91.3621282,42.4663805
IOWA,DUBUQUE,-90.6647985,42.5006243
IOWA,FAYETTE,-91.850265,42.8420766
IOWA,HOWARD,-92.3230007,43.3353641
IOWA,WINNESHIEK,-91.8563139,43.2677179
IOWA,AUDUBON,-94.9106526,41.670205
IOWA,CALHOUN,-94.6332459,42.3808184
IOWA,CARROLL,-94.860335,42.0193628
IOWA,CRAWFORD,-95.3811884,42.020579
IOWA,GREENE,-94.4005864,42.0182893
IOWA,GUTHRIE,-94.4985983,41.6721976
IOWA,HARRISON,-95.7976315,41.6659155
IOWA,IDA,-95.4949407,42.3788371
IOWA,MONONA,-95.9356631,42.0218737
IOWA,SAC,-95.0825306,42.3797854
IOWA,SHELBY,-95.3163623,41.668243
IOWA,WOODBURY,-96.0607187,42.3775361
IOWA,BOONE,-93.9254114,42.0171798
IOWA,DALLAS,-94.0394437,41.6744179
IOWA,GRUNDY,-92.7808666,42.4132701
IOWA,HAMILTON,-93.7083849,42.382945
IOWA,HARDIN,-93.2293918,42.3840463
IOWA,JASPER,-93.0647786,41.6791308
IOWA,MARSHALL,-92.9915704,42.0378125
IOWA,POLK,-93.5921448,41.6765808
IOWA,POWESHIEK,-92.5435034,41.6816512
IOWA,STORY,-93.489194,42.0161612
IOWA,TAMA,-92.5433918,42.0568108
IOWA,WEBSTER,-94.184316,42.4326072
IOWA,BENTON,-92.0776319,42.0599693
IOWA,CEDAR,-91.1263198,41.7608608
IOWA,CLINTON,-90.5599971,41.9054695
IOWA,IOWA,-91.57952674093114,41.6683126
IOWA,JACKSON,-90.5480067,42.1420382
IOWA,JOHNSON,-91.6061124,41.6861834
IOWA,JONES,-91.1427196,42.1081969
IOWA,LINN,-91.6037932,42.0631825
IOWA,MUSCATINE,-91.1210053,41.4776121
IOWA,SCOTT,-90.6164201,41.6251843
IOWA,ADAIR,-94.4953303,41.3127814
IOWA,ADAMS,-94.6850186,41.0161621
IOWA,CASS,-94.9215151,41.3122834
IOWA,FREMONT,-95.5924782,40.7345943
IOWA,MILLS,-95.6087477,41.0171392
IOWA,MONTGOMERY,-95.1753285,41.0166807
IOWA,PAGE,-95.1602396,40.736337
IOWA,POTTAWATTAMIE,-95.5331269,41.3115686
IOWA,TAYLOR,-94.6847413,40.738254
IOWA,APPANOOSE,-92.8649061,40.7455904
IOWA,CLARKE,-93.7842976,41.0152092
IOWA,DECATUR,-93.7994193,40.7418231
IOWA,LUCAS,-93.3427643,41.0147422
IOWA,MADISON,-94.0167968,41.3133406
IOWA,MARION,-93.1010141,41.3144108
IOWA,MONROE,-92.8792544,41.0142519
IOWA,RINGGOLD,-94.2547473,40.7399875
IOWA,UNION,-94.2472694,41.015699
IOWA,WARREN,-93.5685324,41.3138645
IOWA,WAYNE,-93.343458,40.7436612
IOWA,DAVIS,-92.3965311,40.7474784
IOWA,DES MOINES,-93.6046655,41.5910323
IOWA,HENRY,-91.5511282,40.9778301
IOWA,JEFFERSON,-91.9718642,41.0131342
IOWA,KEOKUK,-92.1867128,41.3154792
IOWA,LEE,-91.507313,40.6524894
IOWA,LOUISA,-91.2683976,41.206668
IOWA,MAHASKA,-92.6489935,41.314939
IOWA,VAN BUREN,-91.9689529,40.749202
IOWA,WAPELLO,-92.4140217,41.0137597
IOWA,WASHINGTON,-91.7340327,41.3160082
MISSOURI,ANDREW,-94.8090258,39.9845508
MISSOURI,ATCHISON,-95.4359392,40.4144817
MISSOURI,BUCHANAN,-94.794829,39.6733203
MISSOURI,CALDWELL,-93.9997281,39.6558966
MISSOURI,CLAY,-94.4046405,39.3187409
MISSOURI,CLINTON,-94.4184896,39.5975986
MISSOURI,DAVIESS,-93.9962662,39.9587505
MISSOURI,DE KALB,-94.9252426,39.5869398
MISSOURI,GENTRY,-94.4159527,40.2044898
MISSOURI,HARRISON,-93.9845199,40.337172
MISSOURI,HOLT,-95.2134565,40.0989571
MISSOURI,NODAWAY,-94.8723663,40.3483437
MISSOURI,PLATTE,-94.7716306,39.3770348
MISSOURI,RAY,-93.9888262,39.3661726
MISSOURI,WORTH,-94.4176406,40.4684837
MISSOURI,ADAIR,-92.6161167,40.1769782
MISSOURI,CARROLL,-93.516971,39.441912
MISSOURI,CHARITON,-92.9524728,39.5372927
MISSOURI,GRUNDY,-93.5737817,40.1075648
MISSOURI,LINN,-93.1104004,39.8652349
MISSOURI,LIVINGSTON,-93.5573919,39.7639036
MISSOURI,MACON,-92.5675118,39.8416253
MISSOURI,MERCER,-93.5788706,40.4095007
MISSOURI,PUTNAM,-92.9709709,40.4890407
MISSOURI,RANDOLPH,-92.5009215,39.4418988
MISSOURI,SCHUYLER,-92.5152037,40.4644896
MISSOURI,SULLIVAN,-93.1140993,40.1993002
MISSOURI,AUDRAIN,-91.8467268,39.2226625
MISSOURI,CLARK,-91.7362195,40.3962004
MISSOURI,KNOX,-92.1573551,40.122723
MISSOURI,LEWIS,-91.7013355,40.0902418
MISSOURI,MARION,-91.6318781,39.8080573
MISSOURI,MONROE,-91.9896892,39.494421
MISSOURI,PIKE,-91.1825617,39.3683251
MISSOURI,RALLS,-91.547611,39.552012
MISSOURI,SCOTLAND,-92.1527305,40.4479304
MISSOURI,SHELBY,-92.071021,39.8004535
MISSOURI,BATES,-94.3503613,38.2612027
MISSOURI,CASS,-94.3721539,38.6585427
MISSOURI,CEDAR,-93.861222,37.7084225
MISSOURI,HENRY,-93.8066565,38.3791027
MISSOURI,JACKSON,-94.35835357736804,39.03540865
MISSOURI,JOHNSON,-93.8161034,38.7295547
MISSOURI,LAFAYETTE,-93.8151868,39.0603689
MISSOURI,ST CLAIR,-93.7945456,38.0592942
MISSOURI,VERNON,-94.3800151,37.8639924
MISSOURI,BENTON,-93.3036786,38.2930723
MISSOURI,BOONE,-92.3307534,39.0153926
MISSOURI,CALLAWAY,-91.9257607,38.8491265
MISSOURI,COLE,-92.2956433,38.5189519
MISSOURI,COOPER,-92.8249579,38.8452595
MISSOURI,DALLAS,-93.0219376,37.6832712
MISSOURI,HICKORY,-93.3334746,37.959055
MISSOURI,HOWARD,-92.7181732,39.1321077
MISSOURI,LACLEDE,-92.6324187,37.6475206
MISSOURI,MARIES,-91.928925,38.1683782
MISSOURI,MILLER,-92.4343544,38.2118765
MISSOURI,MONITEAU,-92.5851064,38.6074608
MISSOURI,MORGAN,-92.9183724,38.4177341
MISSOURI,OSAGE,-91.8708392,38.4637283
MISSOURI,PETTIS,-93.2991713,38.7346291
MISSOURI,PHELPS,-91.8168126,37.913292
MISSOURI,POLK,-93.4087994,37.6200803
MISSOURI,PULASKI,-92.2248398,37.8402606
MISSOURI,SALINE,-93.2300648,39.1256186
MISSOURI,CRAWFORD,-91.3156445,37.9920098
MISSOURI,FRANKLIN,-91.0841241,38.4021095
MISSOURI,GASCONADE,-91.5177499,38.4575789
MISSOURI,JEFFERSON,-90.5721889,38.267166
MISSOURI,LINCOLN,-90.959359,39.0605477
MISSOURI,MONTGOMERY,-91.4821326,38.9682313
MISSOURI,PERRY,-89.8430248,37.7107349
MISSOURI,ST CHARLES,-90.6747372,38.7877791
MISSOURI,STE GENEVIEVE,-90.1856637,37.88958
MISSOURI,ST FRANCOIS,-90.5089041,37.7763775
MISSOURI,ST LOUIS,-90.1910154,38.6280278
MISSOURI,WARREN,-91.1453948,38.7535106
MISSOURI,WASHINGTON,-90.879099,37.9559513
MISSOURI,BARRY,-93.8229669,36.7033624
MISSOURI,BARTON,-94.3620755,37.5040024
MISSOURI,CHRISTIAN,-93.1692896,36.9586087
MISSOURI,DADE,-93.8406302,37.4323036
MISSOURI,GREENE,-93.3465486,37.2671929
MISSOURI,JASPER,-94.3103412,37.176515
MISSOURI,LAWRENCE,-93.8535681,37.1036975
MISSOURI,MCDONALD,-94.3529462,36.6259839
MISSOURI,NEWTON,-94.3424195,36.9070237
MISSOURI,BOLLINGER,-90.0296175,37.3310468
MISSOURI,MADISON,-90.3567669,37.4914691
MISSOURI,RIPLEY,-90.8887906,36.6478735
MISSOURI,WAYNE,-90.4809149,37.1129133
MISSOURI,WEBSTER,-92.8792111,37.2895151
MISSOURI,BUTLER,-90.4146358,36.7151346
MISSOURI,CAPE GIRARDEAU,-89.5230357,37.3034933
MISSOURI,DUNKLIN,-90.0591292,36.2156534
MISSOURI,MISSISSIPPI,-89.3336141,36.837087
MISSOURI,NEW MADRID,-89.6780945,36.5749606
MISSOURI,PEMISCOT,-89.8351486,36.2104949
MISSOURI,SCOTT,-89.5523071,37.0516647
MISSOURI,STODDARD,-89.9451636,36.8556646
NEBRASKA,CHEYENNE,-102.9796713,41.2053619
NEBRASKA,DEUEL,-102.3261249,41.1097054
NEBRASKA,GARDEN,-102.3392806,41.6440533
NEBRASKA,SHERIDAN,-102.4089285,42.4542885
NEBRASKA,BOYD,-98.7614212,42.916011
NEBRASKA,BROWN,-99.9120353,42.4068829
NEBRASKA,CHERRY,-101.1503042,42.5560174
NEBRASKA,GARFIELD,-99.0097985,41.895743
NEBRASKA,HOLT,-98.7540783,42.4304452
NEBRASKA,KEYA PAHA,-99.6995454,42.8866032
NEBRASKA,LOGAN,-100.5030548,41.5590057
NEBRASKA,LOUP,-99.4608177,41.9075834
NEBRASKA,ROCK,-99.456071,42.4152603
NEBRASKA,WHEELER,-98.5309487,41.8998069
NEBRASKA,ANTELOPE,-98.0716943,42.1864809
NEBRASKA,BOONE,-98.0544842,41.7103804
NEBRASKA,BURT,-96.3357902,41.855662
NEBRASKA,CEDAR,-97.2399373,42.5947161
NEBRASKA,CUMING,-96.7921475,41.9233919
NEBRASKA,DAKOTA,-96.5677015,42.4049316
NEBRASKA,DIXON,-96.8792569,42.4351249
NEBRASKA,KNOX,-97.8901445,42.6206698
NEBRASKA,MADISON,-97.5961512,41.9064942
NEBRASKA,PIERCE,-97.6036812,42.2591262
NEBRASKA,STANTON,-97.2141158,41.9220687
NEBRASKA,THURSTON,-96.5394986,42.1837827
NEBRASKA,WAYNE,-97.169623,42.1941294
NEBRASKA,BUFFALO,-99.0845451,40.8421618
NEBRASKA,CUSTER,-99.7272241,41.4022198
NEBRASKA,DAWSON,-99.8505693,40.8776438
NEBRASKA,GREELEY,-98.5300914,41.5595746
NEBRASKA,HALL,-98.5122907,40.8627335
NEBRASKA,HOWARD,-98.5174349,41.227424
NEBRASKA,SHERMAN,-98.99384,41.2206877
NEBRASKA,VALLEY,-98.9805484,41.5595723
NEBRASKA,BUTLER,-97.1384119,41.2142454
NEBRASKA,CASS,-96.1922102,40.9017313
NEBRASKA,COLFAX,-97.0828487,41.5738643
NEBRASKA,DODGE,-96.6789773,41.58577
NEBRASKA,DOUGLAS,-96.1415672,41.2954112
NEBRASKA,HAMILTON,-98.0470062,40.8569853
NEBRASKA,LANCASTER,-96.6909842,40.9515685
NEBRASKA,MERRICK,-98.0531937,41.1650536
NEBRASKA,NANCE,-98.002421,41.3947359
NEBRASKA,PLATTE,-97.54136640081376,41.538537500000004
NEBRASKA,POLK,-97.570244,41.1893645
NEBRASKA,SARPY,-96.093081,41.1193462
NEBRASKA,SAUNDERS,-96.6520834,41.2260007
NEBRASKA,SEWARD,-97.1706676,40.8695533
NEBRASKA,WASHINGTON,-96.246548,41.5407766
NEBRASKA,YORK,-97.6001401,40.871617
NEBRASKA,CHASE,-101.6931758,40.5217576
NEBRASKA,DUNDY,-101.6959427,40.1849874
NEBRASKA,FRONTIER,-100.4230266,40.5520473
NEBRASKA,HAYES,-101.0605971,40.5335592
NEBRASKA,HITCHCOCK,-101.0387468,40.1659573
NEBRASKA,KEITH,-101.6862537,41.1973065
NEBRASKA,LINCOLN,-96.7077751,40.8088861
NEBRASKA,PERKINS,-101.6522162,40.8501242
NEBRASKA,RED WILLOW,-100.4550901,40.1686191
NEBRASKA,ADAMS,-98.5148588,40.5125798
NEBRASKA,FRANKLIN,-98.9687585,40.1715234
NEBRASKA,FURNAS,-99.8981009,40.1791278
NEBRASKA,GOSPER,-99.8185651,40.5145053
NEBRASKA,HARLAN,-99.4349368,40.1617382
NEBRASKA,KEARNEY,-98.9472344,40.4906216
NEBRASKA,PHELPS,-99.425665,40.5078647
NEBRASKA,WEBSTER,-98.5260923,40.1677552
NEBRASKA,CLAY,-98.0695257,40.5020772
NEBRASKA,FILLMORE,-97.5997675,40.5292758
NEBRASKA,GAGE,-96.7021336,40.2469449
NEBRASKA,JEFFERSON,-97.1786805,40.185543
NEBRASKA,JOHNSON,-96.2796179,40.3915587
NEBRASKA,NEMAHA,-95.8518344,40.3837713
NEBRASKA,NUCKOLLS,-98.047997,40.1621285
NEBRASKA,OTOE,-96.1444582,40.6566851
NEBRASKA,PAWNEE,-96.2629022,40.1223248
NEBRASKA,RICHARDSON,-95.7607517,40.1194651
NEBRASKA,SALINE,-97.175536,40.5079612
NEBRASKA,THAYER,-97.6348188,40.1682672
OHIO,ALLEN,-84.0572225,40.8077797
OHIO,DEFIANCE,-84.5084835,41.3203058
OHIO,FULTON,-84.1141048,41.6045817
OHIO,HANCOCK,-83.6587588,40.9939911
OHIO,HENRY,-84.0581255,41.2818109
OHIO,LUCAS,-83.621321,41.6508446
OHIO,PAULDING,-84.5902954,41.1628401
OHIO,PUTNAM,-84.1686932,41.0677672
OHIO,VAN WERT,-84.600988,40.8014651
OHIO,WILLIAMS,-84.5923785,41.5018224
OHIO,WOOD,-83.6643025,41.2776661
OHIO,ASHLAND,-82.2360391,40.7887367
OHIO,CRAWFORD,-82.9065596,40.8705909
OHIO,ERIE,-82.640448,41.3506462
OHIO,HURON,-82.591828,41.1305303
OHIO,LORAIN,-82.1734746,41.2633554
OHIO,OTTAWA,-83.213342,41.5421375
OHIO,RICHLAND,-82.5302254,40.776322
OHIO,SANDUSKY,-83.1555438,41.2951563
OHIO,SENECA,-82.99065318849799,39.962939199999994
OHIO,WYANDOT,-83.2810539,40.865471
OHIO,ASHTABULA,-80.789809,41.865054
OHIO,COLUMBIANA,-80.7648602,40.7787016
OHIO,GEAUGA,-81.1850459,41.4768249
OHIO,LAKE,-81.2380032,41.7064789
OHIO,MAHONING,-80.7826416,40.9830133
OHIO,MEDINA,-81.9382517,41.1000764
OHIO,PORTAGE,-81.2082,41.1496775
OHIO,STARK,-81.4399734,40.7214654
OHIO,SUMMIT,-81.5333603,41.1457902
OHIO,TRUMBULL,-80.9539818,41.6781106
OHIO,WAYNE,-81.9034617,40.8615819
OHIO,AUGLAIZE,-84.2641951,40.5942186
OHIO,CHAMPAIGN,-83.7701999,40.1726987
OHIO,CLARK,-83.7905959,39.9229676
OHIO,DARKE,-84.631372,40.168765
OHIO,HARDIN,-83.6835337,40.6880457
OHIO,LOGAN,-83.7414465,40.4430521
OHIO,MERCER,-84.6109122,40.4367866
OHIO,MIAMI,-84.2236524,40.0580258
OHIO,SHELBY,-84.1593008,40.3491604
OHIO,DELAWARE,-82.9651045,40.2317686
OHIO,FAIRFIELD,-82.6418883,39.7886111
OHIO,FAYETTE,-83.4401122,39.5839889
OHIO,FRANKLIN,-84.3041074,39.5589474
OHIO,KNOX,-82.4056302,40.4467896
OHIO,LICKING,-82.4627856,40.1318041
OHIO,MADISON,-83.3937233,39.8868227
OHIO,MARION,-83.1895249,40.5885271
OHIO,MORROW,-82.7771661,40.4574358
OHIO,PICKAWAY,-83.0373284,39.6725327
OHIO,ROSS,-83.077359,39.3455507
OHIO,UNION,-83.3676859,40.3255937
OHIO,BELMONT,-81.0097516,40.0057737
OHIO,CARROLL,-81.0927234,40.5250362
OHIO,COSHOCTON,-81.9271441,40.2905684
OHIO,HARRISON,-81.1289112,40.2694328
OHIO,HOLMES,-81.9304045,40.5840117
OHIO,JEFFERSON,-80.7847619,40.3792938
OHIO,TUSCARAWAS,-81.464888,40.3759469
OHIO,BUTLER,-84.5936897,39.4233043
OHIO,CLERMONT,-84.1566341,39.0678155
OHIO,CLINTON,-83.8445792,39.4259873
OHIO,GREENE,-83.9175037,39.6908207
OHIO,HAMILTON,-84.5501874,39.2085354
OHIO,MONTGOMERY,-84.2854817,39.6837328
OHIO,PREBLE,-84.6411162,39.8125011
OHIO,WARREN,-84.180897,39.4203978
OHIO,ADAMS,-83.5051704,38.8398935
OHIO,BROWN,-83.8836555,38.9092542
OHIO,GALLIA,-82.3556216,38.7952465
OHIO,HIGHLAND,-83.6304344,39.1802516
OHIO,JACKSON,-82.6089043,39.0131871
OHIO,LAWRENCE,-82.5702511,38.6065461
OHIO,PIKE,-83.0611404,39.1056387
OHIO,SCIOTO,-83.017141,38.823448
OHIO,ATHENS,-82.0610404,39.355589
OHIO,GUERNSEY,-81.4859433,40.0802222
OHIO,HOCKING,-82.5469722,39.4644491
OHIO,MEIGS,-82.0420769,39.1099292
OHIO,MORGAN,-81.877978,39.5943953
OHIO,MUSKINGUM,-81.9984697,40.0064162
OHIO,NOBLE,-81.4957347,39.7517148
OHIO,PERRY,-82.2044367,39.6370289
OHIO,VINTON,-82.4740302,39.2744355
OHIO,WASHINGTON,-81.5488945,39.4782641
